ID	Nombre	Localidad	Provincia	Comunidad	longitude	latitude
H 100	Encinasola,Huelva,Andalucía	Encinasola	Huelva	Andalucía	-6.871288799999999	38.1381825
H 101	Rosal de la Frontera,Huelva,Andalucía	Rosal de la Frontera	Huelva	Andalucía	-7.2207943	37.9671774
H 102	Aroche,Huelva,Andalucía	Aroche	Huelva	Andalucía	-6.9544649	37.9436991
H 200	Cumbres de San Bartolomé,Huelva,Andalucía	Cumbres de San Bartolomé	Huelva	Andalucía	-6.7420396	38.0779265
H 201	Arroyomoloinos de León,Huelva,Andalucía	Arroyomoloinos de León	Huelva	Andalucía	-6.4216722	38.0240295
H 202	Aracena,Huelva,Andalucía	Aracena	Huelva	Andalucía	-6.561888400000001	37.8935487
H 203	Santa Olalla del Cala,Huelva,Andalucía	Santa Olalla del Cala	Huelva	Andalucía	-6.2283035	37.90785839999999
H 204	Almonaster la Real,Huelva,Andalucía	Almonaster la Real	Huelva	Andalucía	-6.7875489	37.8723167
H 300	Cabezas Rubias,Huelva,Andalucía	Cabezas Rubias	Huelva	Andalucía	-7.0868239	37.7265272
H 301	Calañas,Huelva,Andalucía	Calañas	Huelva	Andalucía	-6.8793335	37.6548016
H 302	La Puebla de Guzmán,Huelva,Andalucía	La Puebla de Guzmán	Huelva	Andalucía	-7.248429499999999	37.6134855
H 303	Sanlúcar de Guadiana,Huelva,Andalucía	Sanlúcar de Guadiana	Huelva	Andalucía	-7.466197299999998	37.4730074
H 400	Higuera de la Sierra,Huelva,Andalucía	Higuera de la Sierra	Huelva	Andalucía	-6.4463477	37.8353642
H 401	Campofrío,Huelva,Andalucía	Campofrío	Huelva	Andalucía	-6.575357	37.7653534
H 402	Berrocal,Huelva,Andalucía	Berrocal	Huelva	Andalucía	-6.5419804	37.6080876
H 500	San Bartolomé de la Torre,Huelva,Andalucía	San Bartolomé de la Torre	Huelva	Andalucía	-7.1045431	37.4465111
H 501	San Silvestre de Guzmán,Huelva,Andalucía	San Silvestre de Guzmán	Huelva	Andalucía	-7.348279900000001	37.38849330000001
H 502	Moguer,Huelva,Andalucía	Moguer	Huelva	Andalucía	-6.8369079	37.27464
H 503	Huelva,Huelva,Andalucía	Huelva	Huelva	Andalucía	-6.9447224	37.261421
H 504	Ayamonte,Huelva,Andalucía	Ayamonte	Huelva	Andalucía	-7.4043413	37.2141237
H 600	Beas,Huelva,Andalucía	Beas	Huelva	Andalucía	-6.8136642	37.4637036
H 601	Paterna del Campo,Huelva,Andalucía	Paterna del Campo	Huelva	Andalucía	-6.4021367	37.4192869
H 602	Niebla,Huelva,Andalucía	Niebla	Huelva	Andalucía	-6.6785142	37.3611241
H 603	Bollullos Par del Condado,Huelva,Andalucía	Bollullos Par del Condado	Huelva	Andalucía	-6.5383124	37.3383616
Se 100	Guadacanal,Sevilla,Andalucía	Guadacanal	Sevilla	Andalucía	-5.8205506	38.0924974
Se 101	El Real de la Jara,Sevilla,Andalucía	El Real de la Jara	Sevilla	Andalucía	-6.1540241	37.9487253
Se 102	El Pedroso,Sevilla,Andalucía	El Pedroso	Sevilla	Andalucía	-5.7655343	37.8415667
Se 200	Navas de la Concepción,Sevilla,Andalucía	Navas de la Concepción	Sevilla	Andalucía	-5.4655542	37.9332489
Se 201	La Puebla de los Infantes,Sevilla,Andalucía	La Puebla de los Infantes	Sevilla	Andalucía	-5.3895778	37.780393
Se 300	Castilblanco,Sevilla,Andalucía	Castilblanco	Sevilla	Andalucía	-5.989867599999999	37.6741826
Se 301	El Madroño,Sevilla,Andalucía	El Madroño	Sevilla	Andalucía	-6.5111422	37.6450769
Se 302	El Garrobo,Sevilla,Andalucía	El Garrobo	Sevilla	Andalucía	-6.1725856	37.6276545
Se 303	Alcolea del Río,Sevilla,Andalucía	Alcolea del Río	Sevilla	Andalucía	-5.6681456	37.6158112
Se 304	Burguillos,Sevilla,Andalucía	Burguillos	Sevilla	Andalucía	-5.9680575	37.5857795
Se 305	Aznalcóllar,Sevilla,Andalucía	Aznalcóllar	Sevilla	Andalucía	-6.2681327	37.5191373
Se 306	Olivares,Sevilla,Andalucía	Olivares	Sevilla	Andalucía	-6.142094699999999	37.4686407
Se 307	Sevilla,Sevilla,Andalucía	Sevilla	Sevilla	Andalucía	-5.9844589	37.3890924
Se 308	Viso del Alcor,Sevilla,Andalucía	Viso del Alcor	Sevilla	Andalucía	-5.721781099999999	37.3886862
Se 309	Bollullos de la Mitacion,Sevilla,Andalucía	Bollullos de la Mitacion	Sevilla	Andalucía	-6.1381188	37.339834
Se 310	Pilas,Sevilla,Andalucía	Pilas	Sevilla	Andalucía	-6.2986857	37.3034383
Se 400	La Campana,Sevilla,Andalucía	La Campana	Sevilla	Andalucía	-5.995125	37.3927382
Se 401	Écija,Sevilla,Andalucía	Écija	Sevilla	Andalucía	-5.0826742	37.5414656
Se 402	Carmona,Sevilla,Andalucía	Carmona	Sevilla	Andalucía	-5.6418214	37.471274
Se 403	Marinaleda,Sevilla,Andalucía	Marinaleda	Sevilla	Andalucía	-4.9591166	37.37177010000001
Se 404	La Lantejuela,Sevilla,Andalucía	La Lantejuela	Sevilla	Andalucía	-5.2227526	37.3544458
Se 405	Casariche,Sevilla,Andalucía	Casariche	Sevilla	Andalucía	-4.7626868	37.29383170000001
Se 406	Paradas,Sevilla,Andalucía	Paradas	Sevilla	Andalucía	-5.494822999999999	37.2888304
Se 500	Puebla del Río,Sevilla,Andalucía	Puebla del Río	Sevilla	Andalucía	-6.063133	37.2694065
Se 501	Villafranca y los Palacios,Sevilla,Andalucía	Villafranca y los Palacios	Sevilla	Andalucía	-5.9244808	37.1584636
Se 502	Los Molares,Sevilla,Andalucía	Los Molares	Sevilla	Andalucía	-5.719156400000001	37.15622949999999
Se 503	Cabezas de San Juan,Sevilla,Andalucía	Cabezas de San Juan	Sevilla	Andalucía	-5.9383291	36.9802873
Se 600	La Puebla de Cazalla,Sevilla,Andalucía	La Puebla de Cazalla	Sevilla	Andalucía	-5.314171399999999	37.2223653
Se 601	Morón de la Frontera,Sevilla,Andalucía	Morón de la Frontera	Sevilla	Andalucía	-5.4541928	37.1211901
Se 603	Pruna,Sevilla,Andalucía	Pruna	Sevilla	Andalucía	-5.2221001	36.9730795
Ca 100	Trebujena,Cádiz,Andalucía	Trebujena	Cádiz	Andalucía	-6.175237699999999	36.8704663
Ca 101	Chipiona,Cádiz,Andalucía	Chipiona	Cádiz	Andalucía	-6.431699000000001	36.7348614
Ca 102	Jerez de la Frontera,Cádiz,Andalucía	Jerez de la Frontera	Cádiz	Andalucía	-6.126074399999999	36.6850064
Ca 200	Puerto-Serrano,Cádiz,Andalucía	Puerto-Serrano	Cádiz	Andalucía	-5.5420421	36.9230994
Ca 201	Prado del Rey,Cádiz,Andalucía	Prado del Rey	Cádiz	Andalucía	-5.5577902	36.78825760000001
Ca 202	Setenil,Cádiz,Andalucía	Setenil	Cádiz	Andalucía	-5.1764469	36.8624263
Ca 203	Arcos de la Frontera,Cádiz,Andalucía	Arcos de la Frontera	Cádiz	Andalucía	-5.8116522	36.7560042
Ca 204	Benaocaz,Cádiz,Andalucía	Benaocaz	Cádiz	Andalucía	-5.4220326	36.701365
Ca 205	Algar,Cádiz,Andalucía	Algar	Cádiz	Andalucía	-5.6546388	36.6585879
Ca 300	Cádiz,Cádiz,Andalucía	Cádiz	Cádiz	Andalucía	-6.2885962	36.5270612
Ca 301	Paterna de Rivera,Cádiz,Andalucía	Paterna de Rivera	Cádiz	Andalucía	-5.8657211	36.5234413
Ca 302	Benalup de Sidonia (Casas Viejas),Cádiz,Andalucía	Benalup de Sidonia (Casas Viejas)	Cádiz	Andalucía	-5.822859999999999	36.345697
Ca 400	Jimena de la Frontera,Cádiz,Andalucía	Jimena de la Frontera	Cádiz	Andalucía	-5.4509174	36.431902
Ca 500	Vejer de la Frontera,Cádiz,Andalucía	Vejer de la Frontera	Cádiz	Andalucía	-5.9667359	36.252034
Ca 600	Castellar de la Frontera,Cádiz,Andalucía	Castellar de la Frontera	Cádiz	Andalucía	-5.420280399999999	36.2853497
Ca 601	Facinas,Cádiz,Andalucía	Facinas	Cádiz	Andalucía	-5.701687199999999	36.1445803
Ca 602	Algeciras,Cádiz,Andalucía	Algeciras	Cádiz	Andalucía	-5.456233	36.1407591
Co 100	Santa Eufemia,Córdoba,Andalucía	Santa Eufemia	Córdoba	Andalucía	-4.9026448	38.5964107
Co 101	Valsequillo,Córdoba,Andalucía	Valsequillo	Córdoba	Andalucía	-5.350779699999999	38.4064748
Co 102	Villanueva del Duque,Córdoba,Andalucía	Villanueva del Duque	Córdoba	Andalucía	-4.998745899999999	38.3931232
Co 103	Cuenca,Córdoba,Andalucía	Cuenca	Córdoba	Andalucía	-5.5584465	38.3226609
Co 104	Bélmez,Córdoba,Andalucía	Bélmez	Córdoba	Andalucía	-5.207095499999999	38.2710887
Co 200	Torrecampo,Córdoba,Andalucía	Torrecampo	Córdoba	Andalucía	-4.6773317	38.4745984
Co 201	Conquista,Córdoba,Andalucía	Conquista	Córdoba	Andalucía	-4.4902774	38.4097283
Co 202	Villanueva de Córdoba,Córdoba,Andalucía	Villanueva de Córdoba	Córdoba	Andalucía	-4.628506199999999	38.3222465
Co 300	Villaharta,Córdoba,Andalucía	Villaharta	Córdoba	Andalucía	-4.9019277	38.139601999999996
Co 301	Almodóvar del Río,Córdoba,Andalucía	Almodóvar del Río	Córdoba	Andalucía	-5.014567	37.8131513
Co 302	Palma del Río,Córdoba,Andalucía	Palma del Río	Córdoba	Andalucía	-5.2801691	37.69821710000001
Co 400	Venta del Charco,Córdoba,Andalucía	Venta del Charco	Córdoba	Andalucía	-4.2788521	38.2052218
C 401	Montoro,Córdoba,Andalucía	Montoro	Córdoba	Andalucía	-4.3834962	38.02265269999999
Co 402	Córdoba,Córdoba,Andalucía	Córdoba	Córdoba	Andalucía	-4.7793835	37.8881751
Co 403	Cañete de las Torres,Córdoba,Andalucía	Cañete de las Torres	Córdoba	Andalucía	-4.3192729	37.8663547
Co 600	Espejo,Córdoba,Andalucía	Espejo	Córdoba	Andalucía	-4.553698	37.6792827
Co 601	San Sebastián de los Ballesteros,Córdoba,Andalucía	San Sebastián de los Ballesteros	Córdoba	Andalucía	-4.8245227	37.6536024
Co 602	Baena,Córdoba,Andalucía	Baena	Córdoba	Andalucía	-4.3244513	37.617362
Co 603	Montalbán de Córdoba,Córdoba,Andalucía	Montalbán de Córdoba	Córdoba	Andalucía	-4.7496304	37.5804127
Co 604	Nueva Carteya,Córdoba,Andalucía	Nueva Carteya	Córdoba	Andalucía	-4.4677456	37.5856113
Co 605	Castil de Campos,Córdoba,Andalucía	Castil de Campos	Córdoba	Andalucía	-4.1430596	37.4910178
Co 606	Monturque,Córdoba,Andalucía	Monturque	Córdoba	Andalucía	-4.581788899999999	37.4715287
Co 607	Lucena,Córdoba,Andalucía	Lucena	Córdoba	Andalucía	-4.4961008	37.4129332
Co 608	Jauja,Córdoba,Andalucía	Jauja	Córdoba	Andalucía	-4.655690799999999	37.30308309999999
Co 609	Iznájar,Córdoba,Andalucía	Iznájar	Córdoba	Andalucía	-4.3070793	37.2571916
Ma 100	Sierra de Yeguas,Málaga,Andalucía	Sierra de Yeguas	Málaga	Andalucía	-4.868918900000001	37.1239069
Ma 101	Teba,Málaga,Andalucía	Teba	Málaga	Andalucía	-4.9188665	36.9833293
Ma 102	Cañete la Real,Málaga,Andalucía	Cañete la Real	Málaga	Andalucía	-5.0253977	36.9534194
Ma 200	Alameda,Málaga,Andalucía	Alameda	Málaga	Andalucía	-4.6573055	37.2079057
Ma 201	Villanieva de Algaidas,Málaga,Andalucía	Villanieva de Algaidas	Málaga	Andalucía	-4.449727	37.1837988
Ma 202	Villanueva del Trabuco,Málaga,Andalucía	Villanueva del Trabuco	Málaga	Andalucía	-4.338557499999999	37.0279447
Ma 203	Antequera,Málaga,Andalucía	Antequera	Málaga	Andalucía	-4.5593676	37.020001
Ma 300	Ardales,Málaga,Andalucía	Ardales	Málaga	Andalucía	-4.8462303	36.8777175
Ma 301	Ronda,Málaga,Andalucía	Ronda	Málaga	Andalucía	-5.161225099999999	36.746209
Ma 302	Yunquera,Málaga,Andalucía	Yunquera	Málaga	Andalucía	-4.9182175	36.73308979999999
Ma 303	Atajate,Málaga,Andalucía	Atajate	Málaga	Andalucía	-5.2452672	36.6401491
Ma 304	Igualeja,Málaga,Andalucía	Igualeja	Málaga	Andalucía	-5.1217095	36.6310513
Ma 400	Valle de Abdalagís,Málaga,Andalucía	Valle de Abdalagís	Málaga	Andalucía	-4.6831472	36.931189
Ma 401	Riogordo,Málaga,Andalucía	Riogordo	Málaga	Andalucía	-4.2929638	36.9163901
Ma 402	Salares,Málaga,Andalucía	Salares	Málaga	Andalucía	-4.0245292	36.8542807
Ma 403	Almogía,Málaga,Andalucía	Almogía	Málaga	Andalucía	-4.5411443	36.828836
Ma 404	Benamocarra,Málaga,Andalucía	Benamocarra	Málaga	Andalucía	-4.160334499999999	36.7915103
Ma 405	Nerja,Málaga,Andalucía	Nerja	Málaga	Andalucía	-3.8724658	36.7565204
Ma 406	Málaga,Málaga,Andalucía	Málaga	Málaga	Andalucía	-4.4259962	36.7167456
Ma 407	Cártama,Málaga,Andalucía	Cártama	Málaga	Andalucía	-4.629873	36.7121567
Ma 408	Coín,Málaga,Andalucía	Coín	Málaga	Andalucía	-4.75751	36.661601
Ma 500	Jubrique,Málaga,Andalucía	Jubrique	Málaga	Andalucía	-5.215249699999999	36.5647361
Ma 501	Benahavís,Málaga,Andalucía	Benahavís	Málaga	Andalucía	-5.0455575	36.5204891
Ma 502	Gaucín,Málaga,Andalucía	Gaucín	Málaga	Andalucía	-5.3184194	36.5190987
Ma 503	Estepona,Málaga,Andalucía	Estepona	Málaga	Andalucía	-5.1510261	36.4256345
Ma 600	Mijas,Málaga,Andalucía	Mijas	Málaga	Andalucía	-4.6323067	36.5967755
J 100	Aldeaquemada,Jaén,Andalucía	Aldeaquemada	Jaén	Andalucía	-3.3729045	38.4116496
J 101	Santa Elena,Jaén,Andalucía	Santa Elena	Jaén	Andalucía	-3.5392563	38.3424413
J 102	Isabela,Jaén,Andalucía	Isabela	Jaén	Andalucía	-3.580162	38.241229
J 103	Baños de la Encina,Jaén,Andalucía	Baños de la Encina	Jaén	Andalucía	-3.7746699	38.173827
J 200	Villarrodrigo,Jaén,Andalucía	Villarrodrigo	Jaén	Andalucía	-2.636918	38.4876071
J 201	Orcera,Jaén,Andalucía	Orcera	Jaén	Andalucía	-2.6642275	38.3186946
J 202	Beas de Segura,Jaén,Andalucía	Beas de Segura	Jaén	Andalucía	-2.8888912	38.2534703
J 203	Santisteban del Puerto,Jaén,Andalucía	Santisteban del Puerto	Jaén	Andalucía	-3.2043315	38.2532124
J 204	Villacarrillo,Jaén,Andalucía	Villacarrillo	Jaén	Andalucía	-3.0776568	38.0864337
J 205	Sabiota,Jaén,Andalucía	Sabiota	Jaén	Andalucía	-3.3108627	38.0684568
J 300	Canena,Jaén,Andalucía	Canena	Jaén	Andalucía	-3.4839237	38.0473893
J 301	Jabalquinto,Jaén,Andalucía	Jabalquinto	Jaén	Andalucía	-3.7244696	38.0188957
J 302	Cazalilla,Jaén,Andalucía	Cazalilla	Jaén	Andalucía	-3.8757119	37.9677567
J 303	Arjonilla,Jaén,Andalucía	Arjonilla	Jaén	Andalucía	-4.106609199999999	37.9744861
J 304	Torrequebradilla,Jaén,Andalucía	Torrequebradilla	Jaén	Andalucía	-3.661792199999999	37.9099096
J 305	Fuerte del Rey,Jaén,Andalucía	Fuerte del Rey	Jaén	Andalucía	-3.8846224	37.8761645
J 306	Porcuna,Jaén,Andalucía	Porcuna	Jaén	Andalucía	-4.1846569	37.8698808
J 307	Torres,Jaén,Andalucía	Torres	Jaén	Andalucía	-3.5085582	37.7852383
J 308	Jaén,Jaén,Andalucía	Jaén	Jaén	Andalucía	-3.784905699999999	37.7795941
J 309	Santiago de Calatrava,Jaén,Andalucía	Santiago de Calatrava	Jaén	Andalucía	-4.1699341	37.7544664
J 400	Santiago de la Espada,Jaén,Andalucía	Santiago de la Espada	Jaén	Andalucía	-2.5526079	38.1115165
J 401	La Iruela,Jaén,Andalucía	La Iruela	Jaén	Andalucía	-2.9916199	37.9203757
J 402	Peal de Becerro,Jaén,Andalucía	Peal de Becerro	Jaén	Andalucía	-3.1252777	37.9132725
J 403	Jódar,Jaén,Andalucía	Jódar	Jaén	Andalucía	-3.3514863	37.8381872
J 404	Larva,Jaén,Andalucía	Larva	Jaén	Andalucía	-3.2024477	37.7594379
J 500	Huelma,Jaén,Andalucía	Huelma	Jaén	Andalucía	-3.4561456	37.6480579
J 501	Alcaudete,Jaén,Andalucía	Alcaudete	Jaén	Andalucía	-4.083601	37.5908541
J 502	Valdepeñas de Jaén,Jaén,Andalucía	Valdepeñas de Jaén	Jaén	Andalucía	-3.8176232	37.5909347
J 503	Noalejo,Jaén,Andalucía	Noalejo	Jaén	Andalucía	-3.6535175	37.5292307
J 504	Alcalá la Real,Jaén,Andalucía	Alcalá la Real	Jaén	Andalucía	-3.9241021	37.4645203
J 600	Pozo-Alcón,Jaén,Andalucía	Pozo-Alcón	Jaén	Andalucía	-2.9338273	37.7046749
Gr 200	Puebla de don Fadrique,Granada,Andalucía	Puebla de don Fadrique	Granada	Andalucía	-2.4375112	37.9598393
Gr 201	Huéscar,Granada,Andalucía	Huéscar	Granada	Andalucía	-2.539603	37.8663804
Gr 202	Castril de la Peña,Granada,Andalucía	Castril de la Peña	Granada	Andalucía	-2.7801596	37.7956625
Gr 203	Galera,Granada,Andalucía	Galera	Granada	Andalucía	-2.5513692	37.7420931
Gr 300	Montejícar,Granada,Andalucía	Montejícar	Granada	Andalucía	-3.5041358	37.5721931
Gr 301	Colomera,Granada,Andalucía	Colomera	Granada	Andalucía	-3.713683699999999	37.3720028
Gr 302	Iznalloz,Granada,Andalucía	Iznalloz	Granada	Andalucía	-3.5199321	37.39258179999999
Gr 303	Algarinejo,Granada,Andalucía	Algarinejo	Granada	Andalucía	-4.1558553	37.3253187
Gr 304	Diezma,Granada,Andalucía	Diezma	Granada	Andalucía	-3.331966	37.3206159
Gr 305	Caparacena,Granada,Andalucía	Caparacena	Granada	Andalucía	-3.7146353	37.2655227
Gr 306	Brácana,Granada,Andalucía	Brácana	Granada	Andalucía	-3.9447094	37.2267966
Gr 307	Quéntar,Granada,Andalucía	Quéntar	Granada	Andalucía	-3.4643512	37.1938935
Gr 308	Belicena,Granada,Andalucía	Belicena	Granada	Andalucía	-3.692232699999999	37.1710785
Gr 309	Granada,Granada,Andalucía	Granada	Granada	Andalucía	-3.5985571	37.1773363
Gr 400	Cúllar-Baza,Granada,Andalucía	Cúllar-Baza	Granada	Andalucía	-2.5705729	37.5828301
Gr 401	Dehesas del Guadix,Granada,Andalucía	Dehesas del Guadix	Granada	Andalucía	-3.1045944	37.5893286
Gr 402	Freila,Granada,Andalucía	Freila	Granada	Andalucía	-2.9082335	37.5290978
Gr 403	Pedro Martínez,Granada,Andalucía	Pedro Martínez	Granada	Andalucía	-3.2294548	37.5028017
Gr 404	Caniles,Granada,Andalucía	Caniles	Granada	Andalucía	-2.7244889	37.4355237
Gr 405	Gor,Granada,Andalucía	Gor	Granada	Andalucía	-2.9701207	37.3697226
Gr 406	Guadix,Granada,Andalucía	Guadix	Granada	Andalucía	-3.1403256	37.3011351
Gr 407	Charches,Granada,Andalucía	Charches	Granada	Andalucía	-2.9563113	37.2938366
Gr 408	Lugros,Granada,Andalucía	Lugros	Granada	Andalucía	-3.2413929	37.2296017
Gr 409	Ferreira,Granada,Andalucía	Ferreira	Granada	Andalucía	-3.0344627	37.1722014
Gr 410	Lanteira,Granada,Andalucía	Lanteira	Granada	Andalucía	-3.1365632	37.1688826
Gr 500	Salar de Loja,Granada,Andalucía	Salar de Loja	Granada	Andalucía	-4.0675126	37.1499516
Gr 501	Monachil,Granada,Andalucía	Monachil	Granada	Andalucía	-3.5405377	37.1322355
Gr 502	Chimeneas, Granada, Andalucía	Chimeneas	Granada	Andalucía	-3.823602	37.131247
Gr 502	Escúzar,Granada,Andalucía	Escúzar	Granada	Andalucía	-3.7625555999999998	37.0623634
Gr 504	El Padul,Granada,Andalucía	El Padul	Granada	Andalucía	-3.6229742	37.0250888
Gr 505	Capileira,Granada,Andalucía	Capileira	Granada	Andalucía	-3.3588281	36.96213669999999
Gr 506	Pórtugos,Granada,Andalucía	Pórtugos	Granada	Andalucía	-3.3108803	36.9420329
Gr 507	Ventas de Zafarraya,Granada,Andalucía	Ventas de Zafarraya	Granada	Andalucía	-4.1200354	36.9573743
Gr 508	Jayena,Granada,Andalucía	Jayena	Granada	Andalucía	-3.8229168	36.9485057
Gr 509	Albuñuelas,Granada,Andalucía	Albuñuelas	Granada	Andalucía	-3.6303126	36.9289491
Gr 510	Órgiva,Granada,Andalucía	Órgiva	Granada	Andalucía	-3.4232213	36.9017931
Gr 511	Alcázar,Granada,Andalucía	Alcázar	Granada	Andalucía	-3.3398362	36.8499023
Gr 512	Guájar Faragüit,Granada,Andalucía	Guájar Faragüit	Granada	Andalucía	-3.5841166	36.8407949
Gr 513	Lújar,Granada,Andalucía	Lújar	Granada	Andalucía	-3.403473	36.7876079
Gr 514	Almuñecar,Granada,Andalucía	Almuñecar	Granada	Andalucía	-3.7333537	36.7774061
Gr 515	Gualchas,Granada,Andalucía	Gualchas	Granada	Andalucía	-3.3899197	36.7439354
Gr 600	Mairena,Granada,Andalucía	Mairena	Granada	Andalucía	-3.0444753	37.00383960000001
Gr 601	Trévelez,Granada,Andalucía	Trévelez	Granada	Andalucía	-3.2665353	37.0012828
Gr 602	Bérchules,Granada,Andalucía	Bérchules	Granada	Andalucía	-3.1911469	36.9751577
Gr 603	Murtas,Granada,Andalucía	Murtas	Granada	Andalucía	-3.1096078	36.8860232
Gr 604	Albuñol,Granada,Andalucía	Albuñol	Granada	Andalucía	-3.2024477	36.7921634
Al 100	Lúcar,Almería,Andalucía	Lúcar	Almería	Andalucía	-2.4251947	37.4000014
Al 200	Topares,Almería,Andalucía	Topares	Almería	Andalucía	-2.2279714	37.8613998
Al 201	Vélez-Rubio,Almería,Andalucía	Vélez-Rubio	Almería	Andalucía	-2.078777	37.6496854
Al 202	Contador,Almería,Andalucía	Contador	Almería	Andalucía	-2.3634707	37.5904699
Al 203	Oria,Almería,Andalucía	Oria	Almería	Andalucía	-2.2938229	37.484629
Al 204	La Perulera,Almería,Andalucía	La Perulera	Almería	Andalucía	-2.0193269	37.4391173
Al 205	Pulpi,Almería,Andalucía	Pulpi	Almería	Andalucía	-1.7502311	37.4058688
Al 300	Alcóntar,Almería,Andalucía	Alcóntar	Almería	Andalucía	-2.5975336	37.3359524
Al 301	Bacares,Almería,Andalucía	Bacares	Almería	Andalucía	-2.4534614	37.260773
Al 302	Gérgal,Almería,Andalucía	Gérgal	Almería	Andalucía	-2.5414607	37.1181546
Al 303	Abla,Almería,Andalucía	Abla	Almería	Andalucía	-2.777359	37.1423439
Al 400	Cantoria,Almería,Andalucía	Cantoria	Almería	Andalucía	-2.1927313	37.352402
Al 401	Tahal,Almería,Andalucía	Tahal	Almería	Andalucía	-2.2728877	37.1791588
Al 402	Vera,Almería,Andalucía	Vera	Almería	Andalucía	-1.8611011	37.2291388
Al 403	Lubrín,Almería,Andalucía	Lubrín	Almería	Andalucía	-2.0671325	37.215701
Al 404	Palomares,Almería,Andalucía	Palomares	Almería	Andalucía	-1.7995001	37.23949229999999
Al 405	Gafarillos,Almería,Andalucía	Gafarillos	Almería	Andalucía	-2.0195723	37.0571285
Al 500	Tabernas,Almería,Andalucía	Tabernas	Almería	Andalucía	-2.3900546	37.0516792
Al 501	Alboloduy,Almería,Andalucía	Alboloduy	Almería	Andalucía	-2.6210982	37.032996
Al 502	Ohanes,Almería,Andalucía	Ohanes	Almería	Andalucía	-2.7450079	37.0385849
Al 503	Paterna del Río,Almería,Andalucía	Paterna del Río	Almería	Andalucía	-2.9531879	37.0215356
Al 504	Alcolea del Río,Almería,Andalucía	Alcolea del Río	Almería	Andalucía	-5.6695899	37.6173302
Al 505	Benahadux,Almería,Andalucía	Benahadux	Almería	Andalucía	-2.461302	36.926657
Al 506	Felix,Almería,Andalucía	Felix	Almería	Andalucía	-2.7083287	36.8696103
Al 507	Berja,Almería,Andalucía	Berja	Almería	Andalucía	-2.945068	36.8451829
Al 508	Almería,Almería,Andalucía	Almería	Almería	Andalucía	-2.4637136	36.834047
Al 509	Balerma,Almería,Andalucía	Balerma	Almería	Andalucía	-2.8863178	36.7319988
Al 600	Carboneras,Almería,Andalucía	Carboneras	Almería	Andalucía	-1.8921411	36.9991171
Al 601	Níjar,Almería,Andalucía	Níjar	Almería	Andalucía	-2.1057549	36.8925215
Al 602	San José,Almería,Andalucía	San José	Almería	Andalucía	-2.109435	36.7619796
